{
"type": "FeatureCollection",
"name": "LanguagesPoints",
"crs": { "type": "name", "properties": { "name": "urn:ogc:def:crs:OGC:1.3:CRS84" } },
"features": [
{ "type": "Feature", "properties": { "id": 1, "Language": "Achang", "Sino-Tibetan Phylogeny_Name": "Achang", "Sino-Tibetan Phylogeny_Type": "Language", "Sino-Tibetan Phylogeny_Year Diverged": -500, "Sino-Tibetan Phylogeny_Sub-family": "Tibeto-Dulong", "Sino-Tibetan Phylogeny_Sub-sub-family": "Lolo-Burmese", "Sino-Tibetan Phylogeny_Subgroup": "Burmish" }, "geometry": { "type": "Point", "coordinates": [ 97.941279641515408, 23.934693834902884 ] } },
{ "type": "Feature", "properties": { "id": 2, "Language": "Atsi", "Sino-Tibetan Phylogeny_Name": "Atsi", "Sino-Tibetan Phylogeny_Type": "Language", "Sino-Tibetan Phylogeny_Year Diverged": -500, "Sino-Tibetan Phylogeny_Sub-family": "Tibeto-Dulong", "Sino-Tibetan Phylogeny_Sub-sub-family": "Lolo-Burmese", "Sino-Tibetan Phylogeny_Subgroup": "Burmish" }, "geometry": { "type": "Point", "coordinates": [ 97.850214533936906, 23.909802174385128 ] } },
{ "type": "Feature", "properties": { "id": 3, "Language": "Bahing", "Sino-Tibetan Phylogeny_Name": "Bahing", "Sino-Tibetan Phylogeny_Type": "Language", "Sino-Tibetan Phylogeny_Year Diverged": -1500, "Sino-Tibetan Phylogeny_Sub-family": "Kiranti", "Sino-Tibetan Phylogeny_Sub-sub-family": null, "Sino-Tibetan Phylogeny_Subgroup": "Kiranti" }, "geometry": { "type": "Point", "coordinates": [ 87.144537720428318, 26.748652048211184 ] } },
{ "type": "Feature", "properties": { "id": 4, "Language": "Bantawa", "Sino-Tibetan Phylogeny_Name": "Bantawa", "Sino-Tibetan Phylogeny_Type": "Language", "Sino-Tibetan Phylogeny_Year Diverged": -2200, "Sino-Tibetan Phylogeny_Sub-family": "Kiranti", "Sino-Tibetan Phylogeny_Sub-sub-family": null, "Sino-Tibetan Phylogeny_Subgroup": "Kiranti" }, "geometry": { "type": "Point", "coordinates": [ 86.517644654236278, 26.932957307307959 ] } },
{ "type": "Feature", "properties": { "id": 5, "Language": "Beijing Chinese", "Sino-Tibetan Phylogeny_Name": "Beijing Chinese", "Sino-Tibetan Phylogeny_Type": "Language", "Sino-Tibetan Phylogeny_Year Diverged": -2000, "Sino-Tibetan Phylogeny_Sub-family": "Sinitic", "Sino-Tibetan Phylogeny_Sub-sub-family": null, "Sino-Tibetan Phylogeny_Subgroup": "Sinitic" }, "geometry": { "type": "Point", "coordinates": [ 116.493871919526612, 40.167707925123331 ] } },
{ "type": "Feature", "properties": { "id": 6, "Language": "Bokar", "Sino-Tibetan Phylogeny_Name": "Bokar Tani", "Sino-Tibetan Phylogeny_Type": "Language", "Sino-Tibetan Phylogeny_Year Diverged": -4000, "Sino-Tibetan Phylogeny_Sub-family": "Tani-Yidu", "Sino-Tibetan Phylogeny_Sub-sub-family": null, "Sino-Tibetan Phylogeny_Subgroup": "Tani" }, "geometry": { "type": "Point", "coordinates": [ 93.267585940122231, 27.184175593286049 ] } },
{ "type": "Feature", "properties": { "id": 7, "Language": "Bola", "Sino-Tibetan Phylogeny_Name": "Bola", "Sino-Tibetan Phylogeny_Type": "Language", "Sino-Tibetan Phylogeny_Year Diverged": -300, "Sino-Tibetan Phylogeny_Sub-family": "Tibeto-Dulong", "Sino-Tibetan Phylogeny_Sub-sub-family": "Lolo-Burmese", "Sino-Tibetan Phylogeny_Subgroup": "Burmish" }, "geometry": { "type": "Point", "coordinates": [ 98.284933888726769, 24.162573036452365 ] } },
{ "type": "Feature", "properties": { "id": 8, "Language": "Bunan", "Sino-Tibetan Phylogeny_Name": "Bunan", "Sino-Tibetan Phylogeny_Type": "Language", "Sino-Tibetan Phylogeny_Year Diverged": -3400, "Sino-Tibetan Phylogeny_Sub-family": "West Himalayish", "Sino-Tibetan Phylogeny_Sub-sub-family": null, "Sino-Tibetan Phylogeny_Subgroup": "Tibeto-Kinauri" }, "geometry": { "type": "Point", "coordinates": [ 77.163756016906802, 32.247084626021248 ] } },
{ "type": "Feature", "properties": { "id": 9, "Language": "Byangsi", "Sino-Tibetan Phylogeny_Name": "Byangsi", "Sino-Tibetan Phylogeny_Type": "Language", "Sino-Tibetan Phylogeny_Year Diverged": -2600, "Sino-Tibetan Phylogeny_Sub-family": "West Himalayish", "Sino-Tibetan Phylogeny_Sub-sub-family": null, "Sino-Tibetan Phylogeny_Subgroup": "Tibeto-Kinauri" }, "geometry": { "type": "Point", "coordinates": [ 80.296183536041028, 29.14481289701644 ] } },
{ "type": "Feature", "properties": { "id": 10, "Language": "Chaozhou Chinese", "Sino-Tibetan Phylogeny_Name": "Chaozhou Chinese", "Sino-Tibetan Phylogeny_Type": "Language", "Sino-Tibetan Phylogeny_Year Diverged": -300, "Sino-Tibetan Phylogeny_Sub-family": "Sinitic", "Sino-Tibetan Phylogeny_Sub-sub-family": null, "Sino-Tibetan Phylogeny_Subgroup": "Sinitic" }, "geometry": { "type": "Point", "coordinates": [ 116.680836568230788, 23.465758178538096 ] } },
{ "type": "Feature", "properties": { "id": 11, "Language": "Chepang", "Sino-Tibetan Phylogeny_Name": "Chepang", "Sino-Tibetan Phylogeny_Type": "Language", "Sino-Tibetan Phylogeny_Year Diverged": -5500, "Sino-Tibetan Phylogeny_Sub-family": null, "Sino-Tibetan Phylogeny_Sub-sub-family": null, "Sino-Tibetan Phylogeny_Subgroup": "Chepang" }, "geometry": { "type": "Point", "coordinates": [ 84.985689668261855, 27.426794737096223 ] } },
{ "type": "Feature", "properties": { "id": 12, "Language": "Daofu", "Sino-Tibetan Phylogeny_Name": "Daofu rGyalrong", "Sino-Tibetan Phylogeny_Type": "Language", "Sino-Tibetan Phylogeny_Year Diverged": -1600, "Sino-Tibetan Phylogeny_Sub-family": "Tibeto-Dulong", "Sino-Tibetan Phylogeny_Sub-sub-family": "Gyalrongic", "Sino-Tibetan Phylogeny_Subgroup": "rGyalrong" }, "geometry": { "type": "Point", "coordinates": [ 101.20390286295698, 30.563639561844479 ] } },
{ "type": "Feature", "properties": { "id": 13, "Language": "Darang Taraon", "Sino-Tibetan Phylogeny_Name": "Darang Taraon", "Sino-Tibetan Phylogeny_Type": "Language", "Sino-Tibetan Phylogeny_Year Diverged": -1300, "Sino-Tibetan Phylogeny_Sub-family": "Tani-Yidu", "Sino-Tibetan Phylogeny_Sub-sub-family": null, "Sino-Tibetan Phylogeny_Subgroup": "Deng" }, "geometry": { "type": "Point", "coordinates": [ 97.529833115282813, 28.336475693901647 ] } },
{ "type": "Feature", "properties": { "id": 14, "Language": "Dulong", "Sino-Tibetan Phylogeny_Name": "Dulong", "Sino-Tibetan Phylogeny_Type": "Language", "Sino-Tibetan Phylogeny_Year Diverged": -5400, "Sino-Tibetan Phylogeny_Sub-family": "Tibeto-Dulong", "Sino-Tibetan Phylogeny_Sub-sub-family": null, "Sino-Tibetan Phylogeny_Subgroup": "Nungic" }, "geometry": { "type": "Point", "coordinates": [ 98.754617037694246, 27.381232622826857 ] } },
{ "type": "Feature", "properties": { "id": 15, "Language": "Garo", "Sino-Tibetan Phylogeny_Name": "Garo", "Sino-Tibetan Phylogeny_Type": "Language", "Sino-Tibetan Phylogeny_Year Diverged": -2200, "Sino-Tibetan Phylogeny_Sub-family": "Sal", "Sino-Tibetan Phylogeny_Sub-sub-family": null, "Sino-Tibetan Phylogeny_Subgroup": "Garo" }, "geometry": { "type": "Point", "coordinates": [ 90.425260580818232, 25.26381748500074 ] } },
{ "type": "Feature", "properties": { "id": 16, "Language": "Guangzhou", "Sino-Tibetan Phylogeny_Name": "Guangzhou Chinese", "Sino-Tibetan Phylogeny_Type": "Language", "Sino-Tibetan Phylogeny_Year Diverged": -1500, "Sino-Tibetan Phylogeny_Sub-family": "Sinitic", "Sino-Tibetan Phylogeny_Sub-sub-family": null, "Sino-Tibetan Phylogeny_Subgroup": "Sinitic" }, "geometry": { "type": "Point", "coordinates": [ 113.289803932062526, 22.899263128234086 ] } },
{ "type": "Feature", "properties": { "id": 17, "Language": "Hakha", "Sino-Tibetan Phylogeny_Name": "Hakha", "Sino-Tibetan Phylogeny_Type": "Language", "Sino-Tibetan Phylogeny_Year Diverged": -700, "Sino-Tibetan Phylogeny_Sub-family": "Kuki-Karbi", "Sino-Tibetan Phylogeny_Sub-sub-family": null, "Sino-Tibetan Phylogeny_Subgroup": "Chin" }, "geometry": { "type": "Point", "coordinates": [ 92.892988502069755, 22.678683353643766 ] } },
{ "type": "Feature", "properties": { "id": 18, "Language": "Hayu", "Sino-Tibetan Phylogeny_Name": "Hayu", "Sino-Tibetan Phylogeny_Type": "Language", "Sino-Tibetan Phylogeny_Year Diverged": -3600, "Sino-Tibetan Phylogeny_Sub-family": "Kiranti", "Sino-Tibetan Phylogeny_Sub-sub-family": null, "Sino-Tibetan Phylogeny_Subgroup": "Kiranti" }, "geometry": { "type": "Point", "coordinates": [ 86.17018091263229, 26.938069778119299 ] } },
{ "type": "Feature", "properties": { "id": 19, "Language": "Japhug", "Sino-Tibetan Phylogeny_Name": "Japhug", "Sino-Tibetan Phylogeny_Type": "Language", "Sino-Tibetan Phylogeny_Year Diverged": -1300, "Sino-Tibetan Phylogeny_Sub-family": "Tibeto-Dulong", "Sino-Tibetan Phylogeny_Sub-sub-family": "Gyalrongic", "Sino-Tibetan Phylogeny_Subgroup": "rGyalrong" }, "geometry": { "type": "Point", "coordinates": [ 102.020828889391069, 31.896693332111926 ] } },
{ "type": "Feature", "properties": { "id": 20, "Language": "Jieyang Chinese", "Sino-Tibetan Phylogeny_Name": "Jieyang Chinese", "Sino-Tibetan Phylogeny_Type": "Language", "Sino-Tibetan Phylogeny_Year Diverged": -300, "Sino-Tibetan Phylogeny_Sub-family": "Sinitic", "Sino-Tibetan Phylogeny_Sub-sub-family": null, "Sino-Tibetan Phylogeny_Subgroup": "Sinitic" }, "geometry": { "type": "Point", "coordinates": [ 116.40865043492235, 23.27627621464865 ] } },
{ "type": "Feature", "properties": { "id": 21, "Language": "Jingpho", "Sino-Tibetan Phylogeny_Name": "Jingpho", "Sino-Tibetan Phylogeny_Type": "Language", "Sino-Tibetan Phylogeny_Year Diverged": -4700, "Sino-Tibetan Phylogeny_Sub-family": "Sal", "Sino-Tibetan Phylogeny_Sub-sub-family": null, "Sino-Tibetan Phylogeny_Subgroup": "Jingpho" }, "geometry": { "type": "Point", "coordinates": [ 97.456078754382631, 25.117310629500523 ] } },
{ "type": "Feature", "properties": { "id": 22, "Language": "Khaling", "Sino-Tibetan Phylogeny_Name": "Khaling", "Sino-Tibetan Phylogeny_Type": "Language", "Sino-Tibetan Phylogeny_Year Diverged": -2000, "Sino-Tibetan Phylogeny_Sub-family": "Kiranti", "Sino-Tibetan Phylogeny_Sub-sub-family": null, "Sino-Tibetan Phylogeny_Subgroup": "Kiranti" }, "geometry": { "type": "Point", "coordinates": [ 87.585858864606053, 27.046647279511308 ] } },
{ "type": "Feature", "properties": { "id": 23, "Language": "Kulung", "Sino-Tibetan Phylogeny_Name": "Kulung", "Sino-Tibetan Phylogeny_Type": "Language", "Sino-Tibetan Phylogeny_Year Diverged": -2000, "Sino-Tibetan Phylogeny_Sub-family": "Kiranti", "Sino-Tibetan Phylogeny_Sub-sub-family": null, "Sino-Tibetan Phylogeny_Subgroup": "Kiranti" }, "geometry": { "type": "Point", "coordinates": [ 86.978840967939547, 27.307418527318358 ] } },
{ "type": "Feature", "properties": { "id": 24, "Language": "Lashi", "Sino-Tibetan Phylogeny_Name": "Lashi", "Sino-Tibetan Phylogeny_Type": "Language", "Sino-Tibetan Phylogeny_Year Diverged": -700, "Sino-Tibetan Phylogeny_Sub-family": "Tibeto-Dulong", "Sino-Tibetan Phylogeny_Sub-sub-family": "Lolo-Burmese", "Sino-Tibetan Phylogeny_Subgroup": "Burmish" }, "geometry": { "type": "Point", "coordinates": [ 98.366615785957848, 23.8416398175859 ] } },
{ "type": "Feature", "properties": { "id": 25, "Language": "Limbu", "Sino-Tibetan Phylogeny_Name": "Limbu", "Sino-Tibetan Phylogeny_Type": "Language", "Sino-Tibetan Phylogeny_Year Diverged": -2200, "Sino-Tibetan Phylogeny_Sub-family": "Kiranti", "Sino-Tibetan Phylogeny_Sub-sub-family": null, "Sino-Tibetan Phylogeny_Subgroup": "Kiranti" }, "geometry": { "type": "Point", "coordinates": [ 87.941573855180252, 26.903607031693028 ] } },
{ "type": "Feature", "properties": { "id": 26, "Language": "Lisu", "Sino-Tibetan Phylogeny_Name": "Lisu", "Sino-Tibetan Phylogeny_Type": "Language", "Sino-Tibetan Phylogeny_Year Diverged": -2800, "Sino-Tibetan Phylogeny_Sub-family": "Tibeto-Dulong", "Sino-Tibetan Phylogeny_Sub-sub-family": "Lolo-Burmese", "Sino-Tibetan Phylogeny_Subgroup": "Loloish" }, "geometry": { "type": "Point", "coordinates": [ 98.926528356105237, 25.638286062238549 ] } },
{ "type": "Feature", "properties": { "id": 27, "Language": "Longgang Chinese", "Sino-Tibetan Phylogeny_Name": "Longgang Chinese", "Sino-Tibetan Phylogeny_Type": "Language", "Sino-Tibetan Phylogeny_Year Diverged": -900, "Sino-Tibetan Phylogeny_Sub-family": "Sinitic", "Sino-Tibetan Phylogeny_Sub-sub-family": null, "Sino-Tibetan Phylogeny_Subgroup": "Sinitic" }, "geometry": { "type": "Point", "coordinates": [ 114.311339855237108, 22.513119471907288 ] } },
{ "type": "Feature", "properties": { "id": 28, "Language": "Lushal", "Sino-Tibetan Phylogeny_Name": "Mizo (Lushai)", "Sino-Tibetan Phylogeny_Type": "Language", "Sino-Tibetan Phylogeny_Year Diverged": -700, "Sino-Tibetan Phylogeny_Sub-family": "Kuki-Karbi", "Sino-Tibetan Phylogeny_Sub-sub-family": null, "Sino-Tibetan Phylogeny_Subgroup": "Mizo" }, "geometry": { "type": "Point", "coordinates": [ 92.712750436291799, 22.456609850825224 ] } },
{ "type": "Feature", "properties": { "id": 29, "Language": "Maru", "Sino-Tibetan Phylogeny_Name": "Maru", "Sino-Tibetan Phylogeny_Type": "Language", "Sino-Tibetan Phylogeny_Year Diverged": -300, "Sino-Tibetan Phylogeny_Sub-family": "Tibeto-Dulong", "Sino-Tibetan Phylogeny_Sub-sub-family": "Lolo-Burmese", "Sino-Tibetan Phylogeny_Subgroup": "Burmish" }, "geometry": { "type": "Point", "coordinates": [ 99.880343072382502, 24.612079942714573 ] } },
{ "type": "Feature", "properties": { "id": 30, "Language": "Karbi", "Sino-Tibetan Phylogeny_Name": "Karbi (Mikir)", "Sino-Tibetan Phylogeny_Type": "Language", "Sino-Tibetan Phylogeny_Year Diverged": -5200, "Sino-Tibetan Phylogeny_Sub-family": "Kuki-Karbi", "Sino-Tibetan Phylogeny_Sub-sub-family": null, "Sino-Tibetan Phylogeny_Subgroup": "Mikir" }, "geometry": { "type": "Point", "coordinates": [ 93.124697798884313, 25.419598218773459 ] } },
{ "type": "Feature", "properties": { "id": 31, "Language": "Tshangla", "Sino-Tibetan Phylogeny_Name": "Tshangla", "Sino-Tibetan Phylogeny_Type": "Language", "Sino-Tibetan Phylogeny_Year Diverged": -5200, "Sino-Tibetan Phylogeny_Sub-family": null, "Sino-Tibetan Phylogeny_Sub-sub-family": null, "Sino-Tibetan Phylogeny_Subgroup": "Bodic" }, "geometry": { "type": "Point", "coordinates": [ 95.424293670996718, 28.974913633846313 ] } },
{ "type": "Feature", "properties": { "id": 32, "Language": "Old Burmese", "Sino-Tibetan Phylogeny_Name": "Old Burmese", "Sino-Tibetan Phylogeny_Type": "Language", "Sino-Tibetan Phylogeny_Year Diverged": -1000, "Sino-Tibetan Phylogeny_Sub-family": "Tibeto-Dulong", "Sino-Tibetan Phylogeny_Sub-sub-family": "Lolo-Burmese", "Sino-Tibetan Phylogeny_Subgroup": "Burmish" }, "geometry": { "type": "Point", "coordinates": [ 97.170474292685157, 21.478168219112739 ] } },
{ "type": "Feature", "properties": { "id": 33, "Language": "Old Chinese", "Sino-Tibetan Phylogeny_Name": "Old Chinese", "Sino-Tibetan Phylogeny_Type": "Language", "Sino-Tibetan Phylogeny_Year Diverged": -2600, "Sino-Tibetan Phylogeny_Sub-family": "Sinitic", "Sino-Tibetan Phylogeny_Sub-sub-family": null, "Sino-Tibetan Phylogeny_Subgroup": "Sinitic" }, "geometry": { "type": "Point", "coordinates": [ 108.914962869895021, 33.810442626195503 ] } },
{ "type": "Feature", "properties": { "id": 34, "Language": "Old Tibetan", "Sino-Tibetan Phylogeny_Name": "Old Tibetan", "Sino-Tibetan Phylogeny_Type": "Language", "Sino-Tibetan Phylogeny_Year Diverged": -1200, "Sino-Tibetan Phylogeny_Sub-family": "Tibeto-Dulong", "Sino-Tibetan Phylogeny_Sub-sub-family": "Tibetan", "Sino-Tibetan Phylogeny_Subgroup": "Tibetan" }, "geometry": { "type": "Point", "coordinates": [ 91.237361551396361, 29.615978381807572 ] } },
{ "type": "Feature", "properties": { "id": 35, "Language": "Rabha", "Sino-Tibetan Phylogeny_Name": "Rabha", "Sino-Tibetan Phylogeny_Type": "Language", "Sino-Tibetan Phylogeny_Year Diverged": -2200, "Sino-Tibetan Phylogeny_Sub-family": "Sal", "Sino-Tibetan Phylogeny_Sub-sub-family": null, "Sino-Tibetan Phylogeny_Subgroup": "Koch" }, "geometry": { "type": "Point", "coordinates": [ 91.232377927524936, 25.479786475994842 ] } },
{ "type": "Feature", "properties": { "id": 36, "Language": "Rangoon Burmese", "Sino-Tibetan Phylogeny_Name": "Rangoon Burmese", "Sino-Tibetan Phylogeny_Type": "Language", "Sino-Tibetan Phylogeny_Year Diverged": -1000, "Sino-Tibetan Phylogeny_Sub-family": "Tibeto-Dulong", "Sino-Tibetan Phylogeny_Sub-sub-family": "Lolo-Burmese", "Sino-Tibetan Phylogeny_Subgroup": "Burmish" }, "geometry": { "type": "Point", "coordinates": [ 96.279958067527318, 17.048393770617974 ] } },
{ "type": "Feature", "properties": { "id": 37, "Language": "Rongpo", "Sino-Tibetan Phylogeny_Name": "Rongpo", "Sino-Tibetan Phylogeny_Type": "Language", "Sino-Tibetan Phylogeny_Year Diverged": -2600, "Sino-Tibetan Phylogeny_Sub-family": "West-Himalayish", "Sino-Tibetan Phylogeny_Sub-sub-family": null, "Sino-Tibetan Phylogeny_Subgroup": "Tibeto-Kinauri" }, "geometry": { "type": "Point", "coordinates": [ 79.615705862222427, 30.145858821895391 ] } },
{ "type": "Feature", "properties": { "id": 38, "Language": "Tangut", "Sino-Tibetan Phylogeny_Name": "Tangut", "Sino-Tibetan Phylogeny_Type": "Language", "Sino-Tibetan Phylogeny_Year Diverged": -2000, "Sino-Tibetan Phylogeny_Sub-family": "Tibeto-Dulong", "Sino-Tibetan Phylogeny_Sub-sub-family": "Gyalrongic", "Sino-Tibetan Phylogeny_Subgroup": "Tangut" }, "geometry": { "type": "Point", "coordinates": [ 106.326418188943833, 38.571515340070661 ] } },
{ "type": "Feature", "properties": { "id": 39, "Language": "Thulung", "Sino-Tibetan Phylogeny_Name": "Thulung", "Sino-Tibetan Phylogeny_Type": "Language", "Sino-Tibetan Phylogeny_Year Diverged": -1500, "Sino-Tibetan Phylogeny_Sub-family": "Kiranti", "Sino-Tibetan Phylogeny_Sub-sub-family": null, "Sino-Tibetan Phylogeny_Subgroup": "Kiranti" }, "geometry": { "type": "Point", "coordinates": [ 87.686098241054424, 27.14653308869606 ] } },
{ "type": "Feature", "properties": { "id": 40, "Language": "Alike Tibetan", "Sino-Tibetan Phylogeny_Name": "Alike Tibetan", "Sino-Tibetan Phylogeny_Type": "Language", "Sino-Tibetan Phylogeny_Year Diverged": -400, "Sino-Tibetan Phylogeny_Sub-family": "Tibeto-Dulong", "Sino-Tibetan Phylogeny_Sub-sub-family": "Tibetan", "Sino-Tibetan Phylogeny_Subgroup": "Tibetan" }, "geometry": { "type": "Point", "coordinates": [ 100.284475731249671, 38.204283383686942 ] } },
{ "type": "Feature", "properties": { "id": 41, "Language": "Batang Tibetan", "Sino-Tibetan Phylogeny_Name": "Batang Tibetan", "Sino-Tibetan Phylogeny_Type": "Language", "Sino-Tibetan Phylogeny_Year Diverged": -600, "Sino-Tibetan Phylogeny_Sub-family": "Tibeto-Dulong", "Sino-Tibetan Phylogeny_Sub-sub-family": "Tibetan", "Sino-Tibetan Phylogeny_Subgroup": "Tibetan" }, "geometry": { "type": "Point", "coordinates": [ 99.167659926196038, 29.596672323717407 ] } },
{ "type": "Feature", "properties": { "id": 42, "Language": "Lhasa Tibetan", "Sino-Tibetan Phylogeny_Name": "Lhasa Tibetan", "Sino-Tibetan Phylogeny_Type": "Language", "Sino-Tibetan Phylogeny_Year Diverged": -600, "Sino-Tibetan Phylogeny_Sub-family": "Tibeto-Dulong", "Sino-Tibetan Phylogeny_Sub-sub-family": "Tibetan", "Sino-Tibetan Phylogeny_Subgroup": "Tibetan" }, "geometry": { "type": "Point", "coordinates": [ 91.236377084153105, 29.272333551677573 ] } },
{ "type": "Feature", "properties": { "id": 43, "Language": "Xiahe Tibetan", "Sino-Tibetan Phylogeny_Name": "Xiahe Tibetan", "Sino-Tibetan Phylogeny_Type": "Language", "Sino-Tibetan Phylogeny_Year Diverged": -400, "Sino-Tibetan Phylogeny_Sub-family": "Tibeto-Dulong", "Sino-Tibetan Phylogeny_Sub-sub-family": "Tibetan", "Sino-Tibetan Phylogeny_Subgroup": "Tibetan" }, "geometry": { "type": "Point", "coordinates": [ 102.749955434804946, 35.018570669184072 ] } },
{ "type": "Feature", "properties": { "id": 44, "Language": "Ukhrul", "Sino-Tibetan Phylogeny_Name": "Ukhrul", "Sino-Tibetan Phylogeny_Type": "Language", "Sino-Tibetan Phylogeny_Year Diverged": -3500, "Sino-Tibetan Phylogeny_Sub-family": "Kuki-Karbi", "Sino-Tibetan Phylogeny_Sub-sub-family": null, "Sino-Tibetan Phylogeny_Subgroup": "Naga" }, "geometry": { "type": "Point", "coordinates": [ 94.422904940471085, 24.78806271549248 ] } },
{ "type": "Feature", "properties": { "id": 45, "Language": "Wobzi Khroskyabs", "Sino-Tibetan Phylogeny_Name": "Wobzi Khroskyabs", "Sino-Tibetan Phylogeny_Type": "Language", "Sino-Tibetan Phylogeny_Year Diverged": -1600, "Sino-Tibetan Phylogeny_Sub-family": "Tibeto-Dulong", "Sino-Tibetan Phylogeny_Sub-sub-family": "Gyalrongic", "Sino-Tibetan Phylogeny_Subgroup": "rGyalrong" }, "geometry": { "type": "Point", "coordinates": [ 101.480122561411733, 31.236434481324668 ] } },
{ "type": "Feature", "properties": { "id": 46, "Language": "Xiandao", "Sino-Tibetan Phylogeny_Name": "Xiandao", "Sino-Tibetan Phylogeny_Type": "Language", "Sino-Tibetan Phylogeny_Year Diverged": -500, "Sino-Tibetan Phylogeny_Sub-family": "Tibeto-Dulong", "Sino-Tibetan Phylogeny_Sub-sub-family": "Lolo-Burmese", "Sino-Tibetan Phylogeny_Subgroup": "Burmish" }, "geometry": { "type": "Point", "coordinates": [ 97.835642623787777, 24.231590372745387 ] } },
{ "type": "Feature", "properties": { "id": 47, "Language": "Xingning Chinese", "Sino-Tibetan Phylogeny_Name": "Xingning Chinese", "Sino-Tibetan Phylogeny_Type": "Language", "Sino-Tibetan Phylogeny_Year Diverged": -900, "Sino-Tibetan Phylogeny_Sub-family": "Sinitic", "Sino-Tibetan Phylogeny_Sub-sub-family": null, "Sino-Tibetan Phylogeny_Subgroup": "Sinitic" }, "geometry": { "type": "Point", "coordinates": [ 115.803582095790688, 23.85676569548761 ] } },
{ "type": "Feature", "properties": { "id": 48, "Language": "Yidu", "Sino-Tibetan Phylogeny_Name": "Yidu", "Sino-Tibetan Phylogeny_Type": "Language", "Sino-Tibetan Phylogeny_Year Diverged": -1300, "Sino-Tibetan Phylogeny_Sub-family": "Tani-Yidu", "Sino-Tibetan Phylogeny_Sub-sub-family": null, "Sino-Tibetan Phylogeny_Subgroup": "Deng" }, "geometry": { "type": "Point", "coordinates": [ 95.718959796481641, 29.073267365121684 ] } },
{ "type": "Feature", "properties": { "id": 49, "Language": "Zhaba", "Sino-Tibetan Phylogeny_Name": "Zhaba", "Sino-Tibetan Phylogeny_Type": "Language", "Sino-Tibetan Phylogeny_Year Diverged": -3200, "Sino-Tibetan Phylogeny_Sub-family": "Tibeto-Dulong", "Sino-Tibetan Phylogeny_Sub-sub-family": "Gyalrongic", "Sino-Tibetan Phylogeny_Subgroup": "Qiangic" }, "geometry": { "type": "Point", "coordinates": [ 101.070535288754996, 30.139967935513138 ] } },
{ "type": "Feature", "properties": { "id": 50, "Language": "Maerkang", "Sino-Tibetan Phylogeny_Name": "Maerkang rGyalrong", "Sino-Tibetan Phylogeny_Type": "Language", "Sino-Tibetan Phylogeny_Year Diverged": -1300, "Sino-Tibetan Phylogeny_Sub-family": "Tibeto-Dulong", "Sino-Tibetan Phylogeny_Sub-sub-family": "Gyalrongic", "Sino-Tibetan Phylogeny_Subgroup": "rGyalrong" }, "geometry": { "type": "Point", "coordinates": [ 102.310305538864256, 31.510701945904529 ] } },
{ "type": "Feature", "properties": { "id": 51, "Language": "Proto-Sino-Tibetan", "Sino-Tibetan Phylogeny_Name": "Proto-Sino-Tibetan", "Sino-Tibetan Phylogeny_Type": "Family", "Sino-Tibetan Phylogeny_Year Diverged": -7200, "Sino-Tibetan Phylogeny_Sub-family": null, "Sino-Tibetan Phylogeny_Sub-sub-family": null, "Sino-Tibetan Phylogeny_Subgroup": null }, "geometry": { "type": "Point", "coordinates": [ 112.730846987852374, 36.139177993295583 ] } },
{ "type": "Feature", "properties": { "id": 53, "Language": "Sinitic", "Sino-Tibetan Phylogeny_Name": "Sinitic", "Sino-Tibetan Phylogeny_Type": "Sub-family", "Sino-Tibetan Phylogeny_Year Diverged": -5500, "Sino-Tibetan Phylogeny_Sub-family": null, "Sino-Tibetan Phylogeny_Sub-sub-family": null, "Sino-Tibetan Phylogeny_Subgroup": null }, "geometry": { "type": "Point", "coordinates": [ 112.870482521487929, 33.177559291991884 ] } },
{ "type": "Feature", "properties": { "id": 58, "Language": "Tibeto-Dulong", "Sino-Tibetan Phylogeny_Name": "Tibeto-Dulong", "Sino-Tibetan Phylogeny_Type": "Sub-family", "Sino-Tibetan Phylogeny_Year Diverged": -5500, "Sino-Tibetan Phylogeny_Sub-family": null, "Sino-Tibetan Phylogeny_Sub-sub-family": null, "Sino-Tibetan Phylogeny_Subgroup": null }, "geometry": { "type": "Point", "coordinates": [ 105.721908261297386, 34.376713553261979 ] } },
{ "type": "Feature", "properties": { "id": 54, "Language": "Kuki-Karbi", "Sino-Tibetan Phylogeny_Name": "Kuki-Karbi", "Sino-Tibetan Phylogeny_Type": "Sub-family", "Sino-Tibetan Phylogeny_Year Diverged": -6000, "Sino-Tibetan Phylogeny_Sub-family": null, "Sino-Tibetan Phylogeny_Sub-sub-family": null, "Sino-Tibetan Phylogeny_Subgroup": null }, "geometry": { "type": "Point", "coordinates": [ 105.943291954423373, 33.514704332876789 ] } },
{ "type": "Feature", "properties": { "id": 52, "Language": "Sal", "Sino-Tibetan Phylogeny_Name": "Sal", "Sino-Tibetan Phylogeny_Type": "Sub-family", "Sino-Tibetan Phylogeny_Year Diverged": -5500, "Sino-Tibetan Phylogeny_Sub-family": null, "Sino-Tibetan Phylogeny_Sub-sub-family": null, "Sino-Tibetan Phylogeny_Subgroup": null }, "geometry": { "type": "Point", "coordinates": [ 103.052673196605014, 32.509271721461701 ] } },
{ "type": "Feature", "properties": { "id": 55, "Language": "Tani-Yidu", "Sino-Tibetan Phylogeny_Name": "Tani-Yidu", "Sino-Tibetan Phylogeny_Type": "Sub-family", "Sino-Tibetan Phylogeny_Year Diverged": -5200, "Sino-Tibetan Phylogeny_Sub-family": null, "Sino-Tibetan Phylogeny_Sub-sub-family": null, "Sino-Tibetan Phylogeny_Subgroup": null }, "geometry": { "type": "Point", "coordinates": [ 100.355600216484092, 32.712871825273268 ] } },
{ "type": "Feature", "properties": { "id": 56, "Language": "Kiranti", "Sino-Tibetan Phylogeny_Name": "Kiranti", "Sino-Tibetan Phylogeny_Type": "Sub-family", "Sino-Tibetan Phylogeny_Year Diverged": -5500, "Sino-Tibetan Phylogeny_Sub-family": null, "Sino-Tibetan Phylogeny_Sub-sub-family": null, "Sino-Tibetan Phylogeny_Subgroup": null }, "geometry": { "type": "Point", "coordinates": [ 97.037829697659788, 30.710678458716554 ] } },
{ "type": "Feature", "properties": { "id": 57, "Language": "West-Himalayish", "Sino-Tibetan Phylogeny_Name": "West-Himalayish", "Sino-Tibetan Phylogeny_Type": "Sub-family", "Sino-Tibetan Phylogeny_Year Diverged": -5500, "Sino-Tibetan Phylogeny_Sub-family": null, "Sino-Tibetan Phylogeny_Sub-sub-family": null, "Sino-Tibetan Phylogeny_Subgroup": null }, "geometry": { "type": "Point", "coordinates": [ 92.403413754418381, 29.375338271680892 ] } },
{ "type": "Feature", "properties": { "id": 59, "Language": "Tibetan", "Sino-Tibetan Phylogeny_Name": "Tibetan", "Sino-Tibetan Phylogeny_Type": "Sub-sub-family", "Sino-Tibetan Phylogeny_Year Diverged": -4700, "Sino-Tibetan Phylogeny_Sub-family": "Tibeto-Dulong", "Sino-Tibetan Phylogeny_Sub-sub-family": null, "Sino-Tibetan Phylogeny_Subgroup": null }, "geometry": { "type": "Point", "coordinates": [ 102.325619739475471, 34.133076808666196 ] } },
{ "type": "Feature", "properties": { "id": 60, "Language": "Gyalrongic", "Sino-Tibetan Phylogeny_Name": "Gyalrongic", "Sino-Tibetan Phylogeny_Type": "Sub-sub-family", "Sino-Tibetan Phylogeny_Year Diverged": -4200, "Sino-Tibetan Phylogeny_Sub-family": "Tibeto-Dulong", "Sino-Tibetan Phylogeny_Sub-sub-family": null, "Sino-Tibetan Phylogeny_Subgroup": null }, "geometry": { "type": "Point", "coordinates": [ 103.385187827567222, 33.158054802648834 ] } },
{ "type": "Feature", "properties": { "id": 61, "Language": "Lolo-Burmese", "Sino-Tibetan Phylogeny_Name": "Lolo-Burmese", "Sino-Tibetan Phylogeny_Type": "Sub-sub-family", "Sino-Tibetan Phylogeny_Year Diverged": -4200, "Sino-Tibetan Phylogeny_Sub-family": "Tibeto-Dulong", "Sino-Tibetan Phylogeny_Sub-sub-family": null, "Sino-Tibetan Phylogeny_Subgroup": null }, "geometry": { "type": "Point", "coordinates": [ 99.294361578543629, 26.239367446247059 ] } }
]
}
